Weather_Database,City,Country,Lat,Lng,Max Temp,Humidity,Cloudiness,Wind Speed,Current Description
0,Vaini,TO,-21.2,-175.2,23.09,100,40,2.06,scattered clouds
1,Klaksvik,FO,62.2266,-6.589,9.51,77,1,18.31,clear sky
2,Ushuaia,AR,-54.8,-68.3,12.79,62,20,0.51,few clouds
3,Noyabrsk,RU,63.1994,75.4507,4.14,84,100,5.48,overcast clouds
4,Virginia Beach,US,36.8529,-75.978,12.25,91,100,5.14,overcast clouds
5,Xixiang,CN,35.1628,112.865,8.02,81,100,0.98,overcast clouds
6,Kapuskasing,CA,49.4169,-82.4331,15.84,71,98,2.36,overcast clouds
7,Yulara,AU,-25.2406,130.9889,16.5,48,0,4.36,clear sky
8,Mataura,NZ,-46.1927,168.8643,1.29,99,100,2.08,snow
9,Lorengau,PG,-2.0226,147.2712,27.59,80,99,4.32,overcast clouds
10,Buala,SB,-8.145,159.5921,26.75,77,98,4.08,overcast clouds
11,Kapaa,US,22.0752,-159.319,25.18,85,75,6.17,light rain
12,Sale,MA,34.0389,-6.8166,27.02,69,40,5.14,scattered clouds
13,Kolondieba,ML,11.0882,-6.8926,31.66,64,80,1.17,broken clouds
14,Mlimba,TZ,-8.8,35.8167,26.63,36,25,1.63,scattered clouds
15,Sechura,PE,-5.5569,-80.8222,24.19,55,52,5.01,broken clouds
16,Isangel,VU,-19.55,169.2667,21.82,72,8,4.79,clear sky
17,Port Hardy,CA,50.6996,-127.4199,11.1,100,100,1.03,fog
18,Albany,US,42.6001,-73.9662,15.7,53,98,2.37,overcast clouds
19,Yarada,IN,17.65,83.2667,27.18,89,40,1.03,mist
20,Butembo,CD,0.15,29.2833,14.55,98,99,0.88,moderate rain
21,Port Alfred,ZA,-33.5906,26.891,18.43,74,3,3.56,clear sky
22,Fare,PF,-16.7,-151.0167,25.14,78,13,10.64,light rain
23,Socorro,US,31.6546,-106.3033,26.38,43,75,1.54,broken clouds
24,Bairiki,KI,1.3292,172.9752,27.0,83,20,2.57,few clouds
25,Jamestown,US,42.097,-79.2353,16.12,38,0,4.12,clear sky
26,Rikitea,PF,-23.1203,-134.9692,20.88,65,64,11.44,broken clouds
27,Qaanaaq,GL,77.484,-69.3632,-7.78,75,99,2.04,overcast clouds
28,Clyde River,CA,70.4692,-68.5914,-2.52,90,100,7.39,light snow
29,Roebourne,AU,-20.7833,117.1333,22.78,60,5,3.31,clear sky
30,Hermanus,ZA,-34.4187,19.2345,14.11,65,0,3.17,clear sky
31,Tasiilaq,GL,65.6145,-37.6368,5.09,68,87,3.15,overcast clouds
32,Emilio Carranza,MX,19.9711,-96.6114,27.5,65,78,4.86,broken clouds
33,Avera,US,33.194,-82.5271,21.97,38,0,2.36,clear sky
34,Sarangani,PH,5.4033,125.4636,28.58,77,66,6.67,broken clouds
35,Punta Arenas,CL,-53.15,-70.9167,10.01,76,40,4.63,light rain
36,Arraial Do Cabo,BR,-22.9661,-42.0278,23.92,69,75,2.57,broken clouds
37,Havelock,US,34.8791,-76.9013,15.98,80,76,4.0,broken clouds
38,San Patricio,US,28.017,-97.5169,28.94,41,99,2.24,overcast clouds
39,Mar Del Plata,AR,-38.0023,-57.5575,15.01,66,75,8.75,broken clouds
40,Kodiak,US,57.79,-152.4072,11.73,82,100,14.4,mist
41,Thompson,CA,55.7435,-97.8558,12.41,41,99,1.27,overcast clouds
42,Provideniya,RU,64.3833,-173.3,1.53,78,65,2.69,broken clouds
43,Zhuhai,CN,22.2769,113.5678,28.81,89,0,1.03,clear sky
44,Longyearbyen,SJ,78.2186,15.6401,1.91,75,40,3.09,scattered clouds
45,Arbuzynka,UA,47.9097,31.3196,11.31,64,100,4.27,overcast clouds
46,Safford,US,32.834,-109.7076,16.51,88,100,10.8,overcast clouds
47,Cape Town,ZA,-33.9258,18.4232,17.27,49,3,1.34,clear sky
48,Torbay,CA,47.6666,-52.7314,14.76,52,2,2.68,clear sky
49,Salalah,OM,17.0151,54.0924,25.75,83,15,1.08,few clouds
50,Busselton,AU,-33.65,115.3333,14.76,90,70,8.1,broken clouds
51,Korla,CN,41.7597,86.1469,12.31,33,82,2.21,broken clouds
52,Kimberley,ZA,-28.7323,24.7623,24.5,10,3,4.7,clear sky
53,Manggar,ID,-2.8833,108.2667,26.43,80,100,1.03,overcast clouds
54,Aksu,CN,41.1231,80.2644,14.8,23,7,1.68,clear sky
55,Lagoa,PT,39.05,-27.9833,21.44,75,80,7.51,broken clouds
56,Sibolga,ID,1.7427,98.7792,23.33,99,100,0.78,very heavy rain
57,Saskylakh,RU,71.9167,114.0833,-5.65,96,100,2.19,overcast clouds
58,Batticaloa,LK,7.7102,81.6924,27.96,74,100,2.07,light rain
59,Saint-Pierre,RE,-21.3393,55.4781,22.82,78,100,1.03,overcast clouds
60,Barrow,US,71.2906,-156.7887,-6.99,93,20,3.6,few clouds
61,Kaitangata,NZ,-46.2817,169.8464,2.51,91,100,4.72,overcast clouds
62,Yerbogachen,RU,61.2767,108.0108,-2.58,74,93,3.36,overcast clouds
63,Olafsvik,IS,64.8945,-23.7142,7.2,84,100,8.77,overcast clouds
64,Porto Novo,BJ,6.4965,2.6036,27.14,74,70,3.41,broken clouds
65,Nolinsk,RU,57.5596,49.9363,9.84,54,100,4.6,overcast clouds
66,Vao,NC,-22.6667,167.4833,19.79,62,1,4.6,clear sky
67,Carnarvon,AU,-24.8667,113.6333,19.49,66,0,6.2,clear sky
68,Labuhan,ID,-6.8844,112.2051,24.79,86,55,4.4,light rain
69,East London,ZA,-33.0153,27.9116,18.04,63,14,3.56,few clouds
70,Praia,CV,14.9215,-23.5087,28.3,78,75,1.54,broken clouds
71,Karratha,AU,-20.7377,116.8463,22.87,61,5,3.59,clear sky
72,Faanui,PF,-16.4833,-151.75,25.19,79,21,9.85,light rain
73,Narsaq,GL,60.9167,-46.05,3.12,60,100,3.02,overcast clouds
74,Lebedinyy,RU,58.5167,125.5167,-6.27,96,100,5.89,snow
75,Presidencia Roque Saenz Pena,AR,-26.7852,-60.4388,32.14,18,0,3.2,clear sky
76,Manicore,BR,-5.8092,-61.3003,38.2,30,50,1.62,scattered clouds
77,Lebu,CL,-37.6167,-73.65,11.84,87,85,5.19,overcast clouds
78,Acapulco,MX,16.8634,-99.8901,28.9,70,40,1.54,scattered clouds
79,Butaritari,KI,3.0707,172.7902,27.39,73,91,6.01,overcast clouds
80,Ancud,CL,-41.8697,-73.8203,10.68,82,84,4.54,light rain
81,Esperance,AU,-33.8667,121.9,13.34,90,8,5.95,clear sky
82,Bluff,NZ,-46.6,168.3333,5.94,59,95,11.46,overcast clouds
83,Tuatapere,NZ,-46.1333,167.6833,2.58,82,96,5.97,light rain
84,Sao Filipe,CV,14.8961,-24.4956,26.51,74,94,2.29,light rain
85,Bethel,US,41.3712,-73.414,12.2,86,100,3.09,light rain
86,Rio Grande,BR,-32.035,-52.0986,23.06,64,61,4.28,broken clouds
87,Bobrovka,RU,54.047,61.7455,8.14,28,7,3.43,clear sky
88,Vila Franca Do Campo,PT,37.7167,-25.4333,24.23,78,33,3.65,light rain
89,Yellowknife,CA,62.456,-114.3525,0.87,74,98,7.15,overcast clouds
90,Bardsir,IR,29.9227,56.5743,20.7,21,72,3.33,broken clouds
91,Sambava,MG,-14.2667,50.1667,21.6,85,13,4.76,few clouds
92,Chuy,UY,-33.6971,-53.4616,18.06,56,79,3.89,broken clouds
93,Lewisville,US,33.0462,-96.9942,28.62,41,0,2.57,clear sky
94,Ishim,RU,56.1128,69.4902,5.93,80,99,3.65,overcast clouds
95,Kawalu,ID,-7.3817,108.2082,21.67,98,98,0.31,overcast clouds
96,Hilo,US,19.7297,-155.09,26.82,85,20,2.57,few clouds
97,Dikson,RU,73.5069,80.5464,0.89,94,100,9.8,overcast clouds
98,Chumikan,RU,54.7183,135.315,0.01,51,41,5.47,scattered clouds
99,Upernavik,GL,72.7868,-56.1549,-3.46,79,100,1.63,overcast clouds
100,Atuona,PF,-9.8,-139.0333,24.69,72,13,10.03,few clouds
101,Los Llanos De Aridane,ES,28.6585,-17.9182,24.86,54,82,2.57,broken clouds
102,Sao Joao Da Barra,BR,-21.6403,-41.0511,27.05,85,100,3.74,overcast clouds
103,Castro,BR,-24.7911,-50.0119,22.0,57,77,2.87,broken clouds
104,Brae,GB,60.3964,-1.353,11.1,76,46,9.33,scattered clouds
105,Puerto Ayora,EC,-0.7393,-90.3518,24.98,87,84,4.47,broken clouds
106,Henties Bay,NA,-22.116,14.2845,13.53,87,3,4.66,clear sky
107,Rocha,UY,-34.4833,-54.3333,19.05,52,17,4.63,few clouds
108,Hobart,AU,-42.8794,147.3294,6.14,87,40,4.63,scattered clouds
109,Erenhot,CN,43.6475,111.9767,1.83,20,0,1.51,clear sky
110,Alta Floresta,BR,-9.8756,-56.0861,34.53,34,49,1.44,scattered clouds
111,Trat,TH,12.5,102.5,27.15,93,80,1.75,broken clouds
112,Bengkulu,ID,-3.8004,102.2655,23.99,90,100,1.61,moderate rain
113,Tuktoyaktuk,CA,69.4541,-133.0374,-1.0,86,75,7.2,broken clouds
114,Gigmoto,PH,13.7796,124.39,26.8,86,51,1.63,broken clouds
115,Abilene,US,32.4487,-99.7331,28.43,29,0,5.14,clear sky
116,Eureka,US,40.8021,-124.1637,14.4,78,96,0.89,overcast clouds
117,Bonito,BR,-21.1211,-56.4819,33.23,32,2,2.37,clear sky
118,Kemlya,RU,54.6963,45.2424,12.88,58,97,6.81,light rain
119,Russell,US,32.3502,-85.1999,24.1,46,0,0.0,clear sky
120,Rio Rancho,US,35.2334,-106.6645,17.26,74,100,2.06,overcast clouds
121,Iqaluit,CA,63.7506,-68.5145,2.61,93,100,1.34,overcast clouds
122,Port-Gentil,GA,-0.7193,8.7815,26.98,78,40,6.17,scattered clouds
123,Nautla,MX,20.2167,-96.7833,26.74,68,89,4.08,overcast clouds
124,Bredasdorp,ZA,-34.5322,20.0403,12.45,67,0,2.95,clear sky
125,Dwarka,IN,22.2394,68.9678,27.84,69,42,4.36,scattered clouds
126,Kruisfontein,ZA,-34.0033,24.7314,13.39,75,20,1.84,few clouds
127,Srednekolymsk,RU,67.45,153.6833,-7.55,87,18,3.17,few clouds
128,Marrakesh,MA,31.6315,-8.0083,33.04,18,73,1.03,broken clouds
129,Westport,US,41.1415,-73.3579,13.02,91,100,7.72,light rain
130,Port Elizabeth,ZA,-33.918,25.5701,16.29,77,17,0.45,few clouds
131,Prenzlau,DE,53.3167,13.8667,14.84,77,82,3.2,broken clouds
132,Sioux Lookout,CA,50.1001,-91.917,14.85,68,100,2.52,overcast clouds
133,Koutiala,ML,12.3917,-5.4642,32.4,56,64,2.82,broken clouds
134,Alice Springs,AU,-23.7,133.8833,16.75,77,40,3.09,scattered clouds
135,Ilulissat,GL,69.2167,-51.1,0.01,64,20,3.6,few clouds
136,Burdur,TR,37.7203,30.2908,18.39,34,75,5.14,broken clouds
137,Lompoc,US,34.6391,-120.4579,20.34,100,100,2.06,mist
138,Plettenberg Bay,ZA,-34.0527,23.3716,14.22,71,23,2.06,few clouds
139,Vardo,NO,70.3705,31.1107,6.99,70,100,5.14,overcast clouds
140,Vite,IN,17.2833,74.55,23.72,67,100,2.82,overcast clouds
141,Nome,US,64.5011,-165.4064,7.04,93,100,0.0,light rain
142,Gainesville,US,29.6516,-82.3248,23.94,63,75,6.69,broken clouds
143,Brazzaville,CG,-4.2658,15.2832,29.95,52,37,1.26,light rain
144,Esna,EG,25.2934,32.554,32.89,20,0,6.29,clear sky
145,Vila Velha,BR,-20.3297,-40.2925,25.97,85,20,6.17,few clouds
146,Kununurra,AU,-15.7667,128.7333,25.99,73,40,2.57,scattered clouds
147,Rio Gallegos,AR,-51.6226,-69.2181,17.03,31,20,6.69,few clouds
148,Airai,TL,-8.9266,125.4092,16.74,92,99,0.78,overcast clouds
149,Hasaki,JP,35.7333,140.8333,26.79,80,100,9.37,overcast clouds
150,Saint-Philippe,RE,-21.3585,55.7679,22.77,80,52,4.98,broken clouds
151,Westbrook,US,43.677,-70.3712,17.22,66,40,6.69,scattered clouds
152,Katherine,AU,-14.4667,132.2667,24.18,83,84,2.06,broken clouds
153,Micheweni,TZ,-4.9667,39.8333,24.14,83,60,4.97,broken clouds
154,Palmer,US,42.1584,-72.3287,13.75,79,100,5.14,overcast clouds
155,Jasper,US,37.2001,-94.3502,26.66,32,0,1.54,clear sky
156,Asau,RO,46.4333,26.4,12.51,74,96,1.87,overcast clouds
157,Georgetown,MY,5.4112,100.3354,25.96,96,40,0.0,scattered clouds
158,New Norfolk,AU,-42.7826,147.0587,5.95,70,29,0.45,scattered clouds
159,Tsarychanka,UA,48.937,34.4786,9.65,73,91,3.91,overcast clouds
160,Mao,ES,39.8885,4.2658,24.31,69,40,0.0,scattered clouds
161,Verkhnyaya Inta,RU,65.9811,60.3094,3.6,85,99,3.04,overcast clouds
162,Formosa,AR,-26.1775,-58.1781,28.99,28,0,3.09,clear sky
163,Constitucion,CL,-35.3333,-72.4167,11.89,81,100,1.08,overcast clouds
164,Fairbanks,US,64.8378,-147.7164,2.83,90,0,3.6,clear sky
165,Hvide Sande,DK,56.0045,8.1294,14.49,90,80,11.76,broken clouds
166,Te Anau,NZ,-45.4167,167.7167,1.92,85,92,1.6,overcast clouds
167,Calca,PE,-13.3333,-71.95,15.64,46,79,2.64,broken clouds
168,Harer,ET,9.3094,42.1258,14.84,91,100,0.89,light rain
169,Amga,RU,60.8953,131.9608,-4.71,86,81,3.93,broken clouds
170,Tongliao,CN,43.6125,122.2653,1.2,34,0,2.88,clear sky
171,Pontian Kecil,MY,1.4801,103.3899,25.54,87,100,2.17,overcast clouds
172,Chokurdakh,RU,70.6333,147.9167,-7.28,96,81,3.26,broken clouds
173,Tamiahua,MX,21.2667,-97.45,25.69,78,99,4.35,overcast clouds
174,Souillac,MU,-20.5167,57.5167,22.21,78,40,4.63,scattered clouds
175,Yendi,GH,9.4427,-0.0099,27.96,79,94,2.32,light rain
176,Laguna,US,38.421,-121.4238,25.01,71,0,2.06,clear sky
177,Burnie,AU,-41.0667,145.9167,7.18,54,98,7.02,overcast clouds
178,Menongue,AO,-14.6585,17.691,27.18,10,62,2.16,broken clouds
179,Saint Austell,GB,50.3383,-4.7658,17.31,82,75,7.72,broken clouds
180,Mosquera,CO,4.7059,-74.2302,18.24,65,81,3.32,broken clouds
181,Nelson Bay,AU,-32.7167,152.15,17.78,79,99,3.58,overcast clouds
182,Manokwari,ID,-0.8667,134.0833,25.53,75,93,0.9,overcast clouds
183,Deputatskiy,RU,69.3,139.9,-18.05,98,50,1.73,scattered clouds
184,Avarua,CK,-21.2078,-159.775,23.03,88,75,5.66,broken clouds
185,Sesheke,ZM,-17.4759,24.2968,28.91,13,0,2.37,clear sky
186,Maloy,NO,61.9353,5.1136,10.85,1,100,9.01,light rain
187,Mahebourg,MU,-20.4081,57.7,22.36,78,40,4.63,scattered clouds
188,Elliot,ZA,-31.3333,27.85,11.94,79,1,2.33,clear sky
189,Ambilobe,MG,-13.2,49.05,21.88,80,25,1.09,scattered clouds
190,Nikolskoye,RU,59.7035,30.7861,8.22,95,96,1.25,overcast clouds
191,Carroll,US,39.5501,-77.0164,10.62,92,100,3.09,overcast clouds
192,Pionerskiy,RU,54.9508,20.2275,12.08,74,61,8.13,broken clouds
193,Ostrovnoy,RU,68.0531,39.5131,6.38,95,100,6.03,light rain
194,Sirohi,IN,24.8833,72.8667,27.99,44,68,1.72,broken clouds
195,Powell River,CA,49.8496,-124.5361,17.88,79,83,2.64,broken clouds
196,Guerrero Negro,MX,27.9769,-114.0611,22.81,69,87,3.11,overcast clouds
197,Bougouni,ML,11.417,-7.479,32.39,60,79,0.61,broken clouds
198,Ponta Do Sol,PT,32.6667,-17.1,26.51,74,27,1.94,scattered clouds
199,San Vicente,AR,-26.6167,-54.1333,25.91,28,0,1.55,clear sky
200,Magomeni,TZ,-6.8,39.25,24.61,74,95,4.96,overcast clouds
201,Lesnoy,RU,57.6198,63.0784,9.42,68,74,2.7,broken clouds
202,Sfantu Gheorghe,RO,45.8667,25.7833,8.29,89,86,1.7,overcast clouds
203,Pangai,TO,-19.8,-174.35,25.35,86,5,5.52,clear sky
204,Nanortalik,GL,60.1432,-45.2371,4.07,72,100,5.78,overcast clouds
205,Alofi,NU,-19.0595,-169.9187,25.01,83,16,7.23,few clouds
206,Cherskiy,RU,68.75,161.3,-6.45,85,37,1.69,scattered clouds
207,Kangaatsiaq,GL,68.3065,-53.4641,0.7,77,99,3.18,overcast clouds
208,Plerin,FR,48.5425,-2.7798,17.18,77,100,3.09,overcast clouds
209,Balkhash,KZ,46.844,74.9804,8.69,33,0,10.95,clear sky
210,Belaya Gora,RU,68.5333,146.4167,-7.31,97,88,1.64,overcast clouds
211,Tangshan,CN,39.6333,118.1833,6.64,30,0,2.27,clear sky
212,Tautira,PF,-17.7333,-149.15,24.63,74,79,11.64,light rain
213,Aswan,EG,24.0934,32.907,37.61,14,0,2.06,clear sky
214,Kampong Thum,KH,12.7111,104.8887,24.34,93,66,2.34,light rain
215,Ous,RU,60.9058,61.5186,8.97,84,73,2.47,broken clouds
216,Marzuq,YE,14.4,46.4667,24.73,58,66,2.81,broken clouds
217,Abonnema,NG,4.7084,6.7931,28.01,72,99,2.87,light rain
218,Kenai,US,60.5544,-151.2583,9.05,85,75,7.72,broken clouds
219,Puerto Quijarro,BO,-17.7833,-57.7667,38.44,27,10,3.41,clear sky
220,Marsabit,KE,2.3284,37.9899,22.91,41,5,7.75,clear sky
221,Pascagoula,US,30.3658,-88.5561,26.9,59,0,1.54,clear sky
222,Kokkola,FI,63.8385,23.1307,7.18,95,20,1.03,fog
223,Tiksi,RU,71.6872,128.8694,-5.24,86,100,5.41,overcast clouds
224,Ayr,GB,55.4627,-4.6339,13.51,88,20,3.09,few clouds
225,Great Falls,US,47.5002,-111.3008,19.67,62,0,5.66,clear sky
226,Padang,ID,-0.9492,100.3543,24.61,86,100,1.1,light rain
227,Zalantun,CN,48.0,122.7167,-1.5,41,44,2.48,scattered clouds
228,Khatanga,RU,71.9667,102.5,-4.2,97,100,3.25,light snow
229,Chunoyar,RU,57.4467,97.3217,-3.57,95,24,1.53,few clouds
230,Mount Isa,AU,-20.7333,139.5,20.87,100,75,6.69,broken clouds
231,Marawi,PH,7.9986,124.2928,20.88,95,98,1.15,overcast clouds
232,Namatanai,PG,-3.6667,152.4333,26.2,84,91,4.03,overcast clouds
233,Dandong,CN,40.1292,124.3947,4.12,50,0,5.91,clear sky
234,Manzanillo,CU,20.3433,-77.1167,29.84,63,47,0.52,scattered clouds
235,Ringebu,NO,61.5167,10.1667,7.67,99,100,4.34,light rain
236,Mayo,US,38.8876,-76.5119,11.74,95,100,4.92,overcast clouds
237,Narasaraopet,IN,16.25,80.0667,24.65,90,100,1.94,overcast clouds
238,Sonoita,MX,31.85,-112.8333,28.72,39,0,1.21,clear sky
239,Victoria,HK,22.2855,114.1577,29.54,81,0,1.79,clear sky
240,Raudeberg,NO,61.9875,5.1352,10.53,1,100,9.63,light rain
241,Pangody,RU,65.85,74.4859,2.89,90,88,5.49,overcast clouds
242,Aguimes,ES,27.9054,-15.4461,26.35,44,0,7.72,clear sky
243,Mehamn,NO,71.0357,27.8492,5.97,70,40,6.69,scattered clouds
244,Ribeira Grande,PT,38.5167,-28.7,24.22,69,20,5.66,few clouds
245,Kallidaikurichchi,IN,8.6667,77.4833,26.7,76,100,3.51,overcast clouds
246,Agadir,MA,30.4202,-9.5982,28.25,37,9,5.64,clear sky
247,Sayat,TM,38.7839,63.8803,16.93,18,1,5.24,clear sky
248,Minab,IR,27.1467,57.0801,30.15,61,0,1.54,clear sky
249,Opuwo,NA,-18.0607,13.84,29.79,14,52,3.24,broken clouds
250,Ambanja,MG,-13.6833,48.45,22.14,86,7,0.16,clear sky
251,Verkhnetulomskiy,RU,68.6073,31.7962,5.07,96,100,1.73,overcast clouds
252,Zaysan,KZ,47.4667,84.8667,5.87,31,74,2.07,broken clouds
253,Turukhansk,RU,65.8167,87.9833,-0.02,99,100,2.97,light snow
254,Saint George,US,37.1041,-113.5841,23.02,49,0,0.45,clear sky
255,Isla Mujeres,MX,21.2311,-86.731,29.03,56,3,3.68,clear sky
256,Bozova,TR,37.3625,38.5267,25.51,38,0,2.79,clear sky
257,Sistranda,NO,63.7256,8.834,10.98,91,100,5.4,light rain
258,Busilac,PH,16.477,121.1186,22.88,97,97,0.68,overcast clouds
259,Alihe,CN,50.5667,123.7167,-4.25,53,7,1.66,clear sky
260,Bontang,ID,0.1333,117.5,26.07,84,100,1.83,light rain
261,Pevek,RU,69.7008,170.3133,-3.42,80,87,1.48,overcast clouds
262,Kiruna,SE,67.8557,20.2251,4.51,100,100,4.12,drizzle
263,Aksarka,RU,66.5606,67.7975,3.8,85,56,4.18,broken clouds
264,Mangrol,IN,21.1167,70.1167,27.25,76,60,5.04,broken clouds
265,Ust-Kuyga,RU,70.0167,135.6,-7.74,90,95,1.53,overcast clouds
266,Caravelas,BR,-17.7125,-39.2481,28.1,58,61,6.43,broken clouds
267,Santa Marta,CO,11.2408,-74.199,34.03,62,20,4.12,few clouds
268,Cayenne,GF,4.9333,-52.3333,32.02,58,20,6.17,few clouds
269,Hamilton,US,39.1834,-84.5333,20.55,41,0,2.57,clear sky
270,Sorong,ID,-0.8833,131.25,26.36,83,86,1.82,overcast clouds
271,Levelland,US,33.5873,-102.378,24.55,38,75,4.89,broken clouds
272,Saint-Louis,SN,16.3333,-15.0,38.47,28,78,2.32,broken clouds
273,Razam,IN,18.4667,83.6667,25.13,93,100,2.14,overcast clouds
274,Broome,US,42.2506,-75.833,11.75,85,100,4.12,overcast clouds
275,Kerewan,GM,13.4898,-16.0888,32.43,61,94,2.2,overcast clouds
276,Phalombe,MW,-15.8064,35.6507,26.9,27,8,0.75,clear sky
277,Arlit,NE,18.7369,7.3853,38.59,9,8,6.46,clear sky
278,Guantanamo,CU,20.1444,-75.2092,28.76,59,94,0.94,overcast clouds
279,Mafinga,TZ,-7.25,35.0667,26.75,25,53,5.79,broken clouds
280,Rawson,AR,-43.3002,-65.1023,20.48,32,68,5.6,broken clouds
281,Hithadhoo,MV,-0.6,73.0833,28.05,74,84,6.96,broken clouds
282,Vila,PT,42.0304,-8.1588,19.28,54,7,1.81,clear sky
283,Maniitsoq,GL,65.4167,-52.9,1.55,59,100,4.52,overcast clouds
284,Daru,PG,-9.0763,143.2092,26.13,89,99,7.27,overcast clouds
285,Leningradskiy,RU,69.3833,178.4167,-3.78,93,100,3.55,overcast clouds
286,Upata,VE,8.0086,-62.3989,30.11,65,71,0.7,broken clouds
287,Kikinda,RS,45.8297,20.4653,14.5,61,100,2.43,overcast clouds
288,Vostok,RU,46.4856,135.8833,-5.16,86,97,1.77,overcast clouds
289,Tura,IN,25.5198,90.2201,22.56,89,93,0.81,overcast clouds
290,Saint-Augustin,CA,51.226,-58.6502,17.04,50,32,7.3,scattered clouds
291,Gizo,SB,-8.103,156.8419,27.61,77,96,3.28,light rain
292,Angoche,MZ,-16.2325,39.9086,24.76,74,2,6.77,clear sky
293,Eirunepe,BR,-6.6603,-69.8736,36.98,34,24,1.34,few clouds
294,Chicama,PE,-7.8447,-79.1469,15.3,61,33,4.65,scattered clouds
295,Camacha,PT,33.0833,-16.3333,21.68,73,20,4.63,few clouds
296,Tigil,RU,57.8,158.6667,6.44,91,100,4.9,light rain
297,Chala,TZ,-7.5833,31.2667,21.0,26,56,0.42,broken clouds
298,Terney,RU,45.0503,136.6092,2.49,56,1,6.52,clear sky
299,La Palma,US,33.8464,-118.0467,28.84,75,40,2.06,scattered clouds
300,Pesaro,IT,43.9036,12.8903,20.63,77,100,5.14,overcast clouds
301,Launceston,AU,-41.45,147.1667,3.8,82,42,5.14,scattered clouds
302,Severo-Kurilsk,RU,50.6789,156.125,11.75,91,100,10.96,light rain
303,Luderitz,NA,-26.6481,15.1594,15.88,68,0,10.16,clear sky
304,Panjakent,TJ,39.4952,67.6093,14.87,34,0,1.04,clear sky
305,Adelaide,AU,-34.9333,138.6,15.71,79,89,7.72,light rain
306,Palanga,LT,55.9175,21.0686,12.01,76,20,2.06,few clouds
307,Charters Towers,AU,-20.1,146.2667,19.0,80,97,5.04,overcast clouds
308,Hohhot,CN,40.8106,111.6522,-0.84,59,0,2.0,clear sky
309,Caraquet,CA,47.7941,-64.9386,15.3,40,78,3.99,broken clouds
310,Goure,NE,13.9835,10.2704,36.87,14,56,3.73,broken clouds
311,Aklavik,CA,68.2191,-135.0107,-3.75,93,6,6.08,clear sky
312,Marsa Matruh,EG,31.3525,27.2453,25.11,65,20,4.12,few clouds
313,Zeya,RU,53.75,127.2667,-3.4,73,63,1.94,broken clouds
314,Shimoda,JP,34.6667,138.95,24.5,89,95,8.72,overcast clouds
315,Tagusao,PH,9.1924,117.8141,26.26,84,75,1.8,broken clouds
316,Nyurba,RU,63.2842,118.3319,-4.06,83,35,2.88,scattered clouds
317,Acari,PE,-15.4311,-74.6158,23.19,48,38,4.77,scattered clouds
318,Filadelfia,US,39.9523,-75.1638,11.01,95,100,6.69,overcast clouds
319,Oriximina,BR,-1.7656,-55.8661,32.73,45,53,1.83,broken clouds
320,Mayor Pablo Lagerenza,PY,-19.9309,-60.7718,34.99,32,35,4.54,scattered clouds
321,Magugu,TZ,-4.0167,35.7667,24.9,30,15,0.21,few clouds
322,Golden,US,39.7555,-105.2211,18.76,65,40,1.79,scattered clouds
323,Salinopolis,BR,-0.6136,-47.3561,29.31,66,66,5.07,broken clouds
324,Peniche,PT,39.3558,-9.3811,24.6,70,4,4.7,clear sky
325,Poyarkovo,RU,49.6,128.6833,-1.76,56,7,3.53,clear sky
326,Freetown,SL,8.484,-13.2299,28.84,61,40,3.09,scattered clouds
327,Kirakira,SB,-10.4544,161.9205,26.77,81,100,4.21,overcast clouds
328,Nizhniy Kuranakh,RU,58.8353,125.4869,-3.59,93,100,4.51,light snow
329,Mitchell,US,43.7094,-98.0298,17.84,80,40,3.6,scattered clouds
330,Abbeville,FR,50.1,1.8333,18.05,83,68,2.57,broken clouds
331,Merauke,ID,-8.4667,140.3333,26.19,88,100,6.14,overcast clouds
332,Buchanan,LR,5.8808,-10.0467,26.87,79,94,4.03,overcast clouds
333,Awbari,LY,26.5921,12.7805,27.54,30,0,4.01,clear sky
334,Tilichiki,RU,60.4667,166.1,4.33,89,100,8.62,moderate rain
335,Ahipara,NZ,-35.1667,173.1667,12.49,73,99,4.88,overcast clouds
336,Port Augusta,AU,-32.5,137.7667,15.21,80,61,2.41,broken clouds
337,Coihaique,CL,-45.5752,-72.0662,12.34,50,40,5.66,scattered clouds
338,Noumea,NC,-22.2763,166.4572,13.99,71,0,2.29,clear sky
339,Simpang,ID,-1.2667,104.0833,24.14,94,100,0.5,light rain
340,Aden,YE,12.7794,45.0367,30.83,70,89,4.82,overcast clouds
341,Tandil,AR,-37.3217,-59.1332,19.27,25,73,6.23,broken clouds
342,Champerico,GT,14.3,-91.9167,32.3,72,55,1.57,broken clouds
343,Petropavlovsk-Kamchatskiy,RU,53.0452,158.6483,8.33,100,100,6.0,light intensity shower rain
344,Ampanihy,MG,-24.7,44.75,21.7,74,0,3.43,clear sky
345,Eregli,TR,37.5133,34.0467,21.35,44,62,1.53,broken clouds
346,Polson,US,47.6936,-114.1632,17.62,73,2,0.44,clear sky
347,Winslow,US,35.0242,-110.6974,14.1,82,100,2.57,overcast clouds
348,Houston,US,29.7633,-95.3633,28.56,51,0,3.09,clear sky
349,Sao Jose Da Coroa Grande,BR,-8.8978,-35.1478,27.07,61,14,4.65,few clouds
350,Fukue,JP,32.6881,128.8419,22.49,83,100,8.6,overcast clouds
351,Hay River,CA,60.8156,-115.7999,8.99,71,75,4.63,broken clouds
352,Fomboni,KM,-12.28,43.7425,24.94,73,14,1.69,few clouds
353,Trinidad,BO,-14.8333,-64.9,33.99,52,75,4.12,moderate rain
354,Nemuro,JP,43.3236,145.575,12.91,85,100,11.52,overcast clouds
355,Half Moon Bay,US,37.4636,-122.4286,17.1,88,100,3.09,overcast clouds
356,Bambous Virieux,MU,-20.3428,57.7575,22.34,78,40,4.63,scattered clouds
357,San Rafael,AR,-34.6177,-68.3301,19.94,36,58,7.57,broken clouds
358,Antofagasta,CL,-23.65,-70.4,16.6,63,16,4.09,few clouds
359,Ouro Preto Do Oeste,BR,-10.7481,-62.2158,34.24,42,50,2.63,scattered clouds
360,Bowral,AU,-34.4667,150.4167,11.3,97,100,1.72,moderate rain
361,Port Lincoln,AU,-34.7333,135.8667,14.07,94,42,5.78,scattered clouds
362,Timra,SE,62.487,17.3257,10.93,93,0,2.57,clear sky
363,Richards Bay,ZA,-28.783,32.0377,21.19,63,100,2.97,overcast clouds
364,Port Macquarie,AU,-31.4333,152.9167,14.94,85,81,0.63,broken clouds
365,Fortuna,US,40.5982,-124.1573,14.25,68,84,1.82,broken clouds
366,Slupsk,PL,54.4641,17.0287,9.69,92,41,3.15,scattered clouds
367,Bubaque,GW,11.2833,-15.8333,27.85,73,99,4.16,overcast clouds
368,Blackfoot,US,43.1905,-112.345,19.75,36,2,1.55,clear sky
369,Kitami,JP,43.8031,143.8908,11.18,85,100,4.56,overcast clouds
370,Tateyama,JP,34.9833,139.8667,25.61,85,98,11.78,overcast clouds
371,Oktyabrskiy,RU,54.4815,53.471,10.08,35,91,4.38,overcast clouds
372,Ouadda,CF,8.0777,22.4007,21.08,93,67,1.44,moderate rain
373,Mareeba,AU,-17.0,145.4333,21.4,88,82,2.14,broken clouds
374,Camocim,BR,-2.9022,-40.8411,32.91,48,86,6.54,overcast clouds
375,Tarko-Sale,RU,64.9225,77.785,2.7,91,100,4.9,overcast clouds
376,Kieta,PG,-6.2167,155.6333,25.71,87,97,2.25,light rain
377,Meadow Lake,US,34.8014,-106.5436,17.44,71,94,1.58,overcast clouds
378,Swan Hill,AU,-35.3378,143.5544,13.78,94,100,6.83,moderate rain
379,Birao,CF,10.2849,22.7882,25.46,73,75,1.82,light rain
380,Pamekasan,ID,-7.1568,113.4746,27.0,78,70,1.45,broken clouds
381,Kungurtug,RU,50.5994,97.5228,-5.1,50,2,0.3,clear sky
382,Tarakan,ID,3.3,117.6333,26.59,79,96,2.63,overcast clouds
383,Sharkan,RU,57.2989,53.8712,10.1,47,100,2.95,overcast clouds
384,Lekoni,GA,-1.5843,14.2591,25.33,76,94,1.47,light rain
385,Tessalit,ML,20.1986,1.0114,38.68,8,2,5.13,clear sky
386,Domoni,KM,-12.2569,44.5319,24.4,81,86,0.42,overcast clouds
387,Los Zacatones,MX,22.95,-102.05,19.03,46,63,4.18,broken clouds
388,Greytown,ZA,-29.0642,30.5928,13.2,93,100,1.22,overcast clouds
389,Berlevag,NO,70.8578,29.0864,6.0,65,0,8.23,clear sky
390,Progreso,MX,21.2833,-89.6667,30.62,56,57,4.27,broken clouds
391,Broken Hill,AU,-31.95,141.4333,17.71,90,100,5.78,overcast clouds
392,Envira,BR,-7.3,-70.2167,36.59,33,6,1.46,clear sky
393,Kommunisticheskiy,RU,61.6789,64.4819,7.55,95,100,1.41,light rain
394,Sola,VU,-13.8833,167.55,26.59,77,42,7.14,scattered clouds
395,Kawai,JP,34.2333,135.85,18.8,98,90,1.72,light rain
396,Talnakh,RU,69.4865,88.3972,0.67,99,100,2.99,light snow
397,Sur,OM,22.5667,59.5289,26.98,70,0,3.92,clear sky
398,Tiarei,PF,-17.5333,-149.3333,24.01,77,69,12.39,light rain
399,Ponta Delgada,PT,37.7333,-25.6667,24.4,83,40,5.66,scattered clouds
400,Sapa,PH,5.1544,120.3241,27.73,78,72,2.28,broken clouds
401,Sheksna,RU,59.21,38.5107,8.98,83,90,6.15,heavy intensity rain
402,Phalaborwa,ZA,-23.943,31.1411,25.13,62,0,8.55,clear sky
403,Okhotsk,RU,59.3833,143.3,-0.27,56,99,5.13,overcast clouds
404,Strelice,CZ,49.1522,16.504,13.9,76,0,1.03,clear sky
405,Koshurnikovo,RU,54.1667,93.3,-3.25,77,1,0.91,clear sky
406,Belleville,CA,44.1788,-77.3705,17.72,39,75,2.57,broken clouds
407,Touros,BR,-5.1989,-35.4608,28.28,58,88,7.42,overcast clouds
408,Faya,SA,18.3851,42.4509,22.06,40,60,1.86,broken clouds
409,Islamkot,PK,24.6997,70.177,30.29,47,76,3.97,broken clouds
410,Antakya,TR,36.2066,36.1572,24.9,69,1,2.17,clear sky
411,Turka,UA,49.1541,23.0297,7.66,92,96,2.66,overcast clouds
412,Richmond West,US,25.6105,-80.4297,30.57,59,40,3.09,scattered clouds
413,Oyama,JP,36.3,139.8,26.99,65,92,0.89,overcast clouds
414,Coahuayana,MX,18.7333,-103.6833,27.66,77,88,0.65,overcast clouds
415,San Carlos De Bariloche,AR,-41.1456,-71.3082,10.86,54,40,9.77,light rain
416,Umm Lajj,SA,25.0213,37.2685,29.27,68,0,2.56,clear sky
417,Moindou,NC,-21.6924,165.677,19.01,71,1,3.28,clear sky
418,San Quintin,MX,30.4833,-115.95,22.12,75,35,1.93,scattered clouds
419,Aykhal,RU,66.0,111.5,-3.71,91,98,8.14,overcast clouds
420,Meulaboh,ID,4.1363,96.1285,23.27,96,100,1.42,moderate rain
421,Sitka,US,57.0531,-135.33,11.94,71,75,4.12,broken clouds
422,Mecca,SA,21.4267,39.8261,31.48,28,20,3.03,few clouds
423,Nueva Armenia,HN,15.7956,-86.4985,29.86,58,26,3.12,scattered clouds
424,Nur,PL,52.6683,22.3221,10.54,80,74,5.14,broken clouds
425,Verkhoyansk,RU,67.5447,133.385,-12.74,98,53,0.71,broken clouds
426,Kavieng,PG,-2.5744,150.7967,27.83,80,53,7.67,light rain
427,Phan Thiet,VN,10.9333,108.1,25.96,87,99,3.4,overcast clouds
428,Nueva Guinea,NI,11.6876,-84.4562,27.79,75,98,4.87,overcast clouds
429,Anloga,GH,5.7947,0.8973,26.52,79,63,5.43,broken clouds
430,Leshukonskoye,RU,64.8989,45.7622,6.35,96,100,2.1,overcast clouds
431,Beringovskiy,RU,63.05,179.3167,2.63,85,91,3.6,overcast clouds
432,Cabo San Lucas,MX,22.8909,-109.9124,31.77,59,0,2.57,clear sky
433,Guider,CM,9.9342,13.9486,26.59,68,61,0.85,broken clouds
434,Torrington,US,41.8007,-73.1212,12.76,80,100,4.02,overcast clouds
435,Kulhudhuffushi,MV,6.6221,73.07,27.56,79,91,7.57,overcast clouds
436,Kavaratti,IN,10.5669,72.642,27.58,77,100,7.36,overcast clouds
437,Boffa,GN,10.1667,-14.0333,29.72,79,99,3.51,overcast clouds
438,Bilma,NE,18.6853,12.9164,35.1,12,1,1.96,clear sky
439,Zhangye,CN,38.9342,100.4517,12.13,38,98,2.27,overcast clouds
440,Dillon,US,34.4166,-79.3712,22.15,38,0,4.03,clear sky
441,Pisco,PE,-13.7,-76.2167,17.23,77,75,2.57,haze
442,Geraldton,AU,-28.7667,114.6,12.23,87,40,3.09,scattered clouds
443,Wexford,IE,52.3342,-6.4575,16.05,98,100,6.71,overcast clouds
444,Cheremukhovo,RU,60.3484,59.9851,7.27,81,49,1.46,scattered clouds
445,Arrah,IN,25.5667,84.6667,25.94,96,100,5.82,light rain
446,Salym,RU,60.0625,71.4789,6.52,97,100,1.82,overcast clouds
447,Nichinan,JP,31.6,131.3667,23.24,91,39,2.88,scattered clouds
448,Alyangula,AU,-13.8483,136.4192,26.57,74,98,1.24,overcast clouds
449,Fort Nelson,CA,58.8053,-122.7002,3.77,75,20,1.54,few clouds
450,Kharitonovo,RU,61.4009,47.4978,10.16,88,100,3.39,overcast clouds
451,Celestun,MX,20.8667,-90.4,28.37,60,21,2.9,few clouds
452,Kahului,US,20.8947,-156.47,25.01,80,75,4.12,broken clouds
453,San Cristobal,VE,7.7669,-72.225,28.1,39,19,2.8,few clouds
454,Maragogi,BR,-9.0122,-35.2225,26.94,62,13,4.79,few clouds
455,Jinchang,CN,38.4953,102.1739,8.36,45,45,3.32,scattered clouds
456,Hofn,IS,64.2539,-15.2082,7.88,93,99,8.22,overcast clouds
457,Tutoia,BR,-2.7619,-42.2744,29.36,61,48,6.26,scattered clouds
458,Qui Nhon,VN,13.7667,109.2333,24.99,90,100,2.77,overcast clouds
459,Havre-Saint-Pierre,CA,50.2334,-63.5986,10.2,76,100,6.69,overcast clouds
460,Glendive,US,47.1053,-104.7125,17.79,78,100,4.12,overcast clouds
461,Mouzouras,GR,35.5333,24.15,20.0,77,20,5.66,few clouds
462,Oranjemund,NA,-28.55,16.4333,14.56,76,0,8.12,clear sky
463,Nortelandia,BR,-14.4547,-56.8028,36.41,29,32,3.19,scattered clouds
464,Vigrestad,NO,58.5667,5.7,14.03,96,100,8.1,light rain
465,Sakakah,SA,29.9697,40.2064,32.76,11,0,4.03,clear sky
466,Haines Junction,CA,60.7522,-137.5108,-1.03,86,100,0.0,overcast clouds
467,Hobyo,SO,5.3505,48.5268,25.39,85,85,8.02,overcast clouds
468,Kodino,RU,63.7198,39.6447,8.52,94,60,2.64,broken clouds
469,Cadereyta,MX,25.5833,-99.9833,23.43,49,38,2.65,scattered clouds
470,Bathsheba,BB,13.2167,-59.5167,29.34,79,75,10.29,broken clouds
471,Ukiah,US,39.1502,-123.2078,24.69,67,0,0.0,clear sky
472,Dubasari,MD,47.2631,29.1608,13.5,61,100,4.72,overcast clouds
473,Bhuban,IN,20.8833,85.8333,24.62,97,98,1.81,overcast clouds
474,Beisfjord,NO,68.3751,17.5988,10.03,84,18,3.89,few clouds
475,Coquimbo,CL,-29.9533,-71.3436,16.85,55,40,6.17,scattered clouds
476,Parkville,US,39.3773,-76.5397,11.07,93,100,2.06,light rain
477,Jackson,US,42.4165,-122.8345,20.42,55,0,0.89,clear sky
478,Dingle,PH,10.9995,122.6711,24.75,88,94,1.98,light rain
479,Waingapu,ID,-9.6567,120.2641,26.77,81,84,1.73,broken clouds
480,Awjilah,LY,29.1081,21.2869,26.35,41,27,3.62,scattered clouds
481,Port Hedland,AU,-20.3167,118.5667,21.03,88,40,2.06,scattered clouds
482,Tolmin,SI,46.183,13.7332,17.77,86,86,0.4,overcast clouds
483,Sisimiut,GL,66.9395,-53.6735,1.24,69,70,2.49,broken clouds
484,Poum,NC,-20.2333,164.0167,22.54,68,21,4.79,few clouds
485,Ozernovskiy,RU,51.5,156.5167,11.93,87,100,14.23,moderate rain
486,Koulikoro,ML,14.0,-7.75,35.73,33,38,3.45,scattered clouds
487,Tulum,MX,20.2167,-87.4667,30.76,50,40,2.21,scattered clouds
488,Bom Jesus,BR,-9.0744,-44.3586,39.17,12,23,2.07,few clouds
489,Shepsi,RU,44.0361,39.1489,19.04,70,98,2.5,overcast clouds
490,Yola,NG,9.2,12.4833,26.47,72,99,0.77,overcast clouds
491,Praia Da Vitoria,PT,38.7333,-27.0667,26.14,69,20,3.47,few clouds
492,Wete,TZ,-5.0559,39.7294,23.33,84,61,3.94,broken clouds
493,Lagos,NG,6.5833,3.75,28.18,78,50,2.82,scattered clouds
494,Lasa,IT,46.6166,10.7002,15.49,59,88,1.59,overcast clouds
495,El Dorado,US,38.7666,-120.5177,25.21,44,12,1.72,few clouds
496,Tukan,RU,53.8409,57.4552,3.94,53,86,1.8,overcast clouds
497,Inhambane,MZ,-23.865,35.3833,24.99,88,40,3.09,scattered clouds
498,Harper,LR,4.375,-7.7169,26.09,82,57,3.36,broken clouds
499,Kyshtovka,RU,56.555,76.6271,4.47,94,100,3.29,overcast clouds
500,Quatre Cocos,MU,-20.2078,57.7625,22.27,75,57,6.19,broken clouds
501,Chimoio,MZ,-19.1164,33.4833,26.92,50,0,4.19,clear sky
502,Lincoln,US,40.8,-96.667,25.75,37,100,2.68,overcast clouds
503,Huarmey,PE,-10.0681,-78.1522,19.83,69,41,5.58,scattered clouds
504,Copiapo,CL,-27.3667,-70.3333,15.83,36,5,3.49,clear sky
505,Robat Karim,IR,35.4846,51.0829,25.92,19,0,1.54,clear sky
506,Arecibo,PR,18.4724,-66.7157,32.37,77,23,1.79,few clouds
507,Atar,MR,20.5169,-13.0499,40.39,15,53,6.22,broken clouds
508,Mukhen,RU,48.1,136.1,-1.48,81,50,3.07,scattered clouds
509,Ouanaminthe,HT,19.55,-71.7333,32.6,52,52,2.73,broken clouds
510,Bethanien,NA,-26.502,17.1583,27.16,6,0,6.38,clear sky
511,Curup,ID,-3.4667,102.5333,19.38,98,100,0.84,moderate rain
512,North Bend,US,43.4065,-124.2243,13.98,94,100,1.54,overcast clouds
513,Rafaela,AR,-31.2503,-61.4867,26.67,17,0,2.68,clear sky
514,Bridlington,GB,54.0831,-0.1919,15.96,78,100,8.47,light rain
515,Kokopo,PG,-4.352,152.2633,24.87,87,78,2.24,broken clouds
516,Takoradi,GH,4.8845,-1.7554,26.43,80,83,4.93,broken clouds
517,Shaunavon,CA,49.6501,-108.4181,16.88,43,10,2.89,clear sky
518,Coolum Beach,AU,-26.5333,153.1,12.97,96,61,1.25,broken clouds
519,Taltal,CL,-25.4,-70.4833,15.52,69,10,2.78,clear sky
520,Puerto Maldonado,PE,-12.6,-69.1833,30.22,62,40,2.57,scattered clouds
521,Flin Flon,CA,54.7682,-101.865,9.91,87,75,1.03,broken clouds
522,Majene,ID,-3.5403,118.9707,25.45,87,100,1.64,overcast clouds
523,Oussouye,SN,12.485,-16.5469,34.1,68,97,4.39,overcast clouds
524,Shakiso,ET,5.75,38.9167,16.9,82,92,1.14,overcast clouds
525,Agua Prieta,MX,31.3,-109.5667,24.65,37,2,0.99,clear sky
526,General Roca,AR,-39.0333,-67.5833,22.57,22,98,6.7,overcast clouds
527,Wuxue,CN,29.8506,115.5525,16.43,67,100,3.91,overcast clouds
528,Nixa,US,37.0434,-93.2944,23.74,44,6,1.34,clear sky
529,Araouane,ML,18.9048,-3.5265,40.55,8,0,5.66,clear sky
530,Ati,TD,13.2154,18.3353,27.65,57,55,7.07,light rain
531,Astoria,US,46.1879,-123.8313,14.15,93,100,1.54,overcast clouds
532,Lavrentiya,RU,65.5833,-171.0,1.35,73,50,2.75,scattered clouds
533,Wilmington Island,US,32.0036,-80.9737,21.13,55,0,2.57,clear sky
534,Les Escoumins,CA,48.1111,-69.0236,8.64,49,99,4.97,overcast clouds
535,Carutapera,BR,-1.195,-46.02,30.91,55,40,4.79,scattered clouds
536,Tirumullaivasal,IN,11.2333,79.8333,29.52,65,100,2.26,overcast clouds
537,Xingcheng,CN,40.6167,120.7167,5.85,35,0,3.09,clear sky
538,Bud,US,39.447,-86.1758,20.93,42,0,2.87,clear sky
539,Cabedelo,BR,-6.9811,-34.8339,30.37,62,58,6.22,broken clouds
540,Rodrigues Alves,BR,-7.738,-72.6509,32.11,36,58,1.44,broken clouds
541,Dispur,IN,26.1425,91.7889,26.97,96,100,0.81,overcast clouds
542,Jalu,LY,29.0331,21.5482,26.51,38,23,3.99,few clouds
543,Gariaband,IN,20.635,82.0614,22.93,99,100,1.72,overcast clouds
544,Christchurch,NZ,-43.5333,172.6333,6.38,91,75,3.09,broken clouds
545,Araioses,BR,-2.89,-41.9031,31.99,62,20,7.2,few clouds
546,Gerash,IR,27.6652,54.1371,27.08,26,3,2.25,clear sky
547,Margate,GB,51.3813,1.3862,15.94,88,100,2.24,overcast clouds
548,Berbera,SO,10.4396,45.0143,32.9,54,92,4.59,overcast clouds
549,Shush,IR,32.1942,48.2436,33.36,11,0,5.54,clear sky
550,Palu,ID,-0.8917,119.8707,23.92,95,94,1.37,overcast clouds
551,Fukuma,JP,33.7667,130.4667,21.27,86,100,7.06,overcast clouds
